{
    "hubs": [
        {
            "id": "ALG_185",
            "name": "Algiers Terminal",
            "supported_modes": [
                "road",
                "air",
                "ship"
            ],
            "latitude": 36.7630556,
            "longitude": 3.0505557
        },
        {
            "id": "ORA_186",
            "name": "Oran Terminal",
            "supported_modes": [
                "road",
                "air",
                "ship"
            ],
            "latitude": 35.6911111,
            "longitude": -0.6416667
        },
        {
            "id": "CON_187",
            "name": "Constantine Terminal",
            "supported_modes": [
                "road",
                "air"
            ],
            "latitude": 36.365,
            "longitude": 6.6147223
        },
        {
            "id": "BAT_188",
            "name": "Batna Terminal",
            "supported_modes": [
                "road",
                "air"
            ],
            "latitude": 35.555971,
            "longitude": 6.1741447
        },
        {
            "id": "BAB_189",
            "name": "Bab Ezzouar Terminal",
            "supported_modes": [
                "road",
                "air",
                "ship"
            ],
            "latitude": 36.7166667,
            "longitude": 3.1833334
        },
        {
            "id": "ANN_190",
            "name": "Annaba Terminal",
            "supported_modes": [
                "road",
                "air",
                "ship"
            ],
            "latitude": 36.9,
            "longitude": 7.7666669
        },
        {
            "id": "BUE_422",
            "name": "Buenos Aires Terminal",
            "supported_modes": [
                "road",
                "air",
                "ship"
            ],
            "latitude": -34.5761256,
            "longitude": -58.4088135
        },
        {
            "id": "COR_423",
            "name": "Cordoba Terminal",
            "supported_modes": [
                "road",
                "air"
            ],
            "latitude": -31.4,
            "longitude": -64.1833344
        },
        {
            "id": "ROS_424",
            "name": "Rosario Terminal",
            "supported_modes": [
                "road",
                "air"
            ],
            "latitude": -32.9511111,
            "longitude": -60.6663895
        },
        {
            "id": "MEN_425",
            "name": "Mendoza Terminal",
            "supported_modes": [
                "road",
                "air"
            ],
            "latitude": -32.8833333,
            "longitude": -68.8166656
        },
        {
            "id": "SAN_426",
            "name": "San Miguel de Tucuman Terminal",
            "supported_modes": [
                "road",
                "air"
            ],
            "latitude": -26.8166667,
            "longitude": -65.2166672
        },
        {
            "id": "LAP_427",
            "name": "La Plata Terminal",
            "supported_modes": [
                "road",
                "air"
            ],
            "latitude": -34.9313889,
            "longitude": -57.9488907
        },
        {
            "id": "SYD_608",
            "name": "Sydney Terminal",
            "supported_modes": [
                "road",
                "air",
                "ship"
            ],
            "latitude": -33.86785,
            "longitude": 151.2073212
        },
        {
            "id": "MEL_609",
            "name": "Melbourne Terminal",
            "supported_modes": [
                "road",
                "air",
                "ship"
            ],
            "latitude": -37.8139966,
            "longitude": 144.9633179
        },
        {
            "id": "PER_610",
            "name": "Perth Terminal",
            "supported_modes": [
                "road",
                "air",
                "ship"
            ],
            "latitude": -31.9333333,
            "longitude": 115.8333359
        },
        {
            "id": "ADE_611",
            "name": "Adelaide Terminal",
            "supported_modes": [
                "road",
                "air",
                "ship"
            ],
            "latitude": -34.9333333,
            "longitude": 138.6000061
        },
        {
            "id": "BRI_612",
            "name": "Brisbane Terminal",
            "supported_modes": [
                "road",
                "air",
                "ship"
            ],
            "latitude": -27.4679357,
            "longitude": 153.0280914
        },
        {
            "id": "GOL_613",
            "name": "Gold Coast Terminal",
            "supported_modes": [
                "road",
                "air"
            ],
            "latitude": -28.0,
            "longitude": 153.4333344
        },
        {
            "id": "WIE_708",
            "name": "Wien Terminal",
            "supported_modes": [
                "road",
                "rail",
                "air"
            ],
            "latitude": 48.2084878,
            "longitude": 16.372076
        },
        {
            "id": "GRA_709",
            "name": "Graz Terminal",
            "supported_modes": [
                "road",
                "rail",
                "air"
            ],
            "latitude": 47.0666667,
            "longitude": 15.4499998
        },
        {
            "id": "LIN_710",
            "name": "Linz Terminal",
            "supported_modes": [
                "road",
                "rail",
                "air"
            ],
            "latitude": 48.3063889,
            "longitude": 14.2861109
        },
        {
            "id": "SAL_711",
            "name": "Salzburg Terminal",
            "supported_modes": [
                "road",
                "rail",
                "air"
            ],
            "latitude": 47.8,
            "longitude": 13.0333328
        },
        {
            "id": "INN_712",
            "name": "Innsbruck Terminal",
            "supported_modes": [
                "road",
                "rail",
                "air"
            ],
            "latitude": 47.2666667,
            "longitude": 11.3999996
        },
        {
            "id": "KLA_713",
            "name": "Klagenfurt Terminal",
            "supported_modes": [
                "road",
                "rail",
                "air"
            ],
            "latitude": 46.6247222,
            "longitude": 14.3052778
        },
        {
            "id": "DHA_914",
            "name": "Dhaka Terminal",
            "supported_modes": [
                "road",
                "air"
            ],
            "latitude": 23.7230556,
            "longitude": 90.4086075
        },
        {
            "id": "CHI_915",
            "name": "Chittagong Terminal",
            "supported_modes": [
                "road",
                "air",
                "ship"
            ],
            "latitude": 22.3330556,
            "longitude": 91.8363876
        },
        {
            "id": "KHU_916",
            "name": "Khulna Terminal",
            "supported_modes": [
                "road"
            ],
            "latitude": 22.8,
            "longitude": 89.5500031
        },
        {
            "id": "RAJ_917",
            "name": "Rajshahi Terminal",
            "supported_modes": [
                "road",
                "air"
            ],
            "latitude": 24.3666667,
            "longitude": 88.5999985
        },
        {
            "id": "COM_918",
            "name": "Comilla Terminal",
            "supported_modes": [
                "road",
                "air"
            ],
            "latitude": 23.4577778,
            "longitude": 91.2044449
        },
        {
            "id": "TUN_919",
            "name": "Tungi Terminal",
            "supported_modes": [
                "road",
                "air"
            ],
            "latitude": 23.89,
            "longitude": 90.4058304
        },
        {
            "id": "MIN_1018",
            "name": "Minsk Terminal",
            "supported_modes": [
                "road",
                "air"
            ],
            "latitude": 53.9,
            "longitude": 27.5666676
        },
        {
            "id": "MAH_1019",
            "name": "Mahilyow Terminal",
            "supported_modes": [
                "road",
                "air"
            ],
            "latitude": 53.9138889,
            "longitude": 30.3363895
        },
        {
            "id": "VIT_1020",
            "name": "Vitsyebsk Terminal",
            "supported_modes": [
                "road",
                "air"
            ],
            "latitude": 55.1925,
            "longitude": 30.1944447
        },
        {
            "id": "HRO_1021",
            "name": "Hrodna Terminal",
            "supported_modes": [
                "road",
                "air"
            ],
            "latitude": 53.6813889,
            "longitude": 23.8147221
        },
        {
            "id": "BRE_1022",
            "name": "Brest Terminal",
            "supported_modes": [
                "road",
                "air"
            ],
            "latitude": 52.1,
            "longitude": 23.7000008
        },
        {
            "id": "BAB_1023",
            "name": "Babruysk Terminal",
            "supported_modes": [
                "road"
            ],
            "latitude": 53.15,
            "longitude": 29.2333336
        },
        {
            "id": "BRU_1108",
            "name": "Brussels Terminal",
            "supported_modes": [
                "road",
                "rail",
                "air",
                "ship"
            ],
            "latitude": 50.8465975,
            "longitude": 4.3527746
        },
        {
            "id": "ANT_1109",
            "name": "Antwerp Terminal",
            "supported_modes": [
                "road",
                "rail",
                "air",
                "ship"
            ],
            "latitude": 51.2166667,
            "longitude": 4.4166665
        },
        {
            "id": "GEN_1110",
            "name": "Gent Terminal",
            "supported_modes": [
                "road",
                "rail"
            ],
            "latitude": 51.05,
            "longitude": 3.7166667
        },
        {
            "id": "CHA_1111",
            "name": "Charleroi Terminal",
            "supported_modes": [
                "road",
                "rail",
                "air"
            ],
            "latitude": 50.4166667,
            "longitude": 4.4333334
        },
        {
            "id": "LIE_1112",
            "name": "Liege Terminal",
            "supported_modes": [
                "road",
                "rail",
                "air"
            ],
            "latitude": 50.6411876,
            "longitude": 5.571785
        },
        {
            "id": "BRU_1113",
            "name": "Brugge Terminal",
            "supported_modes": [
                "road",
                "rail",
                "air",
                "ship"
            ],
            "latitude": 51.2097871,
            "longitude": 3.2250023
        },
        {
            "id": "SAO_1465",
            "name": "Sao Paulo Terminal",
            "supported_modes": [
                "road",
                "air"
            ],
            "latitude": -23.5475,
            "longitude": -46.6361122
        },
        {
            "id": "RIO_1466",
            "name": "Rio de Janeiro Terminal",
            "supported_modes": [
                "road",
                "air"
            ],
            "latitude": -22.9027778,
            "longitude": -43.2075005
        },
        {
            "id": "SAL_1467",
            "name": "Salvador Terminal",
            "supported_modes": [
                "road",
                "air"
            ],
            "latitude": -12.9711111,
            "longitude": -38.5108337
        },
        {
            "id": "FOR_1468",
            "name": "Fortaleza Terminal",
            "supported_modes": [
                "road",
                "air",
                "ship"
            ],
            "latitude": -3.7172222,
            "longitude": -38.5430565
        },
        {
            "id": "BEL_1469",
            "name": "Belo Horizonte Terminal",
            "supported_modes": [
                "road",
                "air"
            ],
            "latitude": -19.9208333,
            "longitude": -43.9377785
        },
        {
            "id": "BRA_1470",
            "name": "Brasilia Terminal",
            "supported_modes": [
                "road",
                "air"
            ],
            "latitude": -15.77972,
            "longitude": -47.9297218
        },
        {
            "id": "SOF_1670",
            "name": "Sofia Terminal",
            "supported_modes": [
                "road",
                "air"
            ],
            "latitude": 42.6975135,
            "longitude": 23.3241463
        },
        {
            "id": "PLO_1671",
            "name": "Plovdiv Terminal",
            "supported_modes": [
                "road",
                "air"
            ],
            "latitude": 42.15,
            "longitude": 24.75
        },
        {
            "id": "VAR_1672",
            "name": "Varna Terminal",
            "supported_modes": [
                "road",
                "air",
                "ship"
            ],
            "latitude": 43.2166667,
            "longitude": 27.916666
        },
        {
            "id": "BUR_1673",
            "name": "Burgas Terminal",
            "supported_modes": [
                "road",
                "air"
            ],
            "latitude": 42.5,
            "longitude": 27.4666672
        },
        {
            "id": "RUS_1674",
            "name": "Ruse Terminal",
            "supported_modes": [
                "road"
            ],
            "latitude": 43.8563889,
            "longitude": 25.9708328
        },
        {
            "id": "STA_1675",
            "name": "Stara Zagora Terminal",
            "supported_modes": [
                "road",
                "air"
            ],
            "latitude": 42.4327778,
            "longitude": 25.6419449
        },
        {
            "id": "TOR_1951",
            "name": "Toronto Terminal",
            "supported_modes": [
                "road",
                "rail",
                "air"
            ],
            "latitude": 43.7001138,
            "longitude": -79.4163055
        },
        {
            "id": "MON_1952",
            "name": "Montreal Terminal",
            "supported_modes": [
                "road",
                "rail",
                "air",
                "ship"
            ],
            "latitude": 45.5167792,
            "longitude": -73.6491776
        },
        {
            "id": "VAN_1953",
            "name": "Vancouver Terminal",
            "supported_modes": [
                "road",
                "rail",
                "air",
                "ship"
            ],
            "latitude": 49.2496574,
            "longitude": -123.119339
        },
        {
            "id": "CAL_1954",
            "name": "Calgary Terminal",
            "supported_modes": [
                "road",
                "rail",
                "air"
            ],
            "latitude": 51.0501123,
            "longitude": -114.085289
        },
        {
            "id": "OTT_1955",
            "name": "Ottawa Terminal",
            "supported_modes": [
                "road",
                "rail",
                "air"
            ],
            "latitude": 45.4209405,
            "longitude": -75.6902847
        },
        {
            "id": "EDM_1956",
            "name": "Edmonton Terminal",
            "supported_modes": [
                "road",
                "rail",
                "air"
            ],
            "latitude": 53.5501359,
            "longitude": -113.4687119
        },
        {
            "id": "SAN_2140",
            "name": "Santiago Terminal",
            "supported_modes": [
                "road",
                "air"
            ],
            "latitude": -33.45,
            "longitude": -70.6666641
        },
        {
            "id": "VIN_2141",
            "name": "vina causino Terminal",
            "supported_modes": [
                "road",
                "air"
            ],
            "latitude": -33.6166667,
            "longitude": -70.5833359
        },
        {
            "id": "ANT_2142",
            "name": "Antofagasta Terminal",
            "supported_modes": [
                "road",
                "air"
            ],
            "latitude": -23.65,
            "longitude": -70.4000015
        },
        {
            "id": "VIN_2143",
            "name": "Vina del Mar Terminal",
            "supported_modes": [
                "road",
                "air"
            ],
            "latitude": -33.0229137,
            "longitude": -71.552536
        },
        {
            "id": "VAL_2144",
            "name": "Valparaiso Terminal",
            "supported_modes": [
                "road",
                "air"
            ],
            "latitude": -33.0393202,
            "longitude": -71.6272583
        },
        {
            "id": "TAL_2145",
            "name": "Talcahuano Terminal",
            "supported_modes": [
                "road",
                "air",
                "ship"
            ],
            "latitude": -36.7166667,
            "longitude": -73.1166687
        },
        {
            "id": "SHA_2240",
            "name": "Shanghai Terminal",
            "supported_modes": [
                "road",
                "rail",
                "air",
                "ship"
            ],
            "latitude": 31.2222222,
            "longitude": 121.4580536
        },
        {
            "id": "BEI_2241",
            "name": "Beijing Terminal",
            "supported_modes": [
                "road",
                "rail",
                "air"
            ],
            "latitude": 39.9074977,
            "longitude": 116.3972244
        },
        {
            "id": "NAN_2242",
            "name": "Nanchong Terminal",
            "supported_modes": [
                "road",
                "rail",
                "air"
            ],
            "latitude": 30.8,
            "longitude": 106.0666656
        },
        {
            "id": "KAI_2243",
            "name": "Kaifeng Terminal",
            "supported_modes": [
                "road",
                "rail"
            ],
            "latitude": 34.7911111,
            "longitude": 114.3483353
        },
        {
            "id": "WUH_2244",
            "name": "Wuhan Terminal",
            "supported_modes": [
                "road",
                "rail",
                "air"
            ],
            "latitude": 30.5833333,
            "longitude": 114.2666702
        },
        {
            "id": "CHO_2245",
            "name": "Chongqing Terminal",
            "supported_modes": [
                "road",
                "rail",
                "air"
            ],
            "latitude": 29.5627778,
            "longitude": 106.5527802
        },
        {
            "id": "ZAG_2637",
            "name": "Zagreb - Centar Terminal",
            "supported_modes": [
                "road",
                "air"
            ],
            "latitude": 45.8131276,
            "longitude": 15.9775333
        },
        {
            "id": "ZAG_2638",
            "name": "Zagreb Terminal",
            "supported_modes": [
                "road",
                "air"
            ],
            "latitude": 45.8,
            "longitude": 16.0
        },
        {
            "id": "SPL_2639",
            "name": "Split Terminal",
            "supported_modes": [
                "road",
                "air"
            ],
            "latitude": 43.5089078,
            "longitude": 16.4391518
        },
        {
            "id": "RIJ_2640",
            "name": "Rijeka Terminal",
            "supported_modes": [
                "road",
                "air"
            ],
            "latitude": 45.3430556,
            "longitude": 14.4091663
        },
        {
            "id": "OSI_2641",
            "name": "Osijek Terminal",
            "supported_modes": [
                "road",
                "air"
            ],
            "latitude": 45.5511111,
            "longitude": 18.6938896
        },
        {
            "id": "ZAD_2642",
            "name": "Zadar Terminal",
            "supported_modes": [
                "road",
                "air"
            ],
            "latitude": 44.1197222,
            "longitude": 15.2422218
        },
        {
            "id": "PRA_2937",
            "name": "Praha Terminal",
            "supported_modes": [
                "road",
                "rail",
                "air"
            ],
            "latitude": 50.0878368,
            "longitude": 14.4241323
        },
        {
            "id": "BRN_2938",
            "name": "Brno Terminal",
            "supported_modes": [
                "road",
                "rail",
                "air"
            ],
            "latitude": 49.1952227,
            "longitude": 16.6079597
        },
        {
            "id": "OST_2939",
            "name": "Ostrava Terminal",
            "supported_modes": [
                "road",
                "rail",
                "air"
            ],
            "latitude": 49.8346452,
            "longitude": 18.2820435
        },
        {
            "id": "PLZ_2940",
            "name": "Plzen Terminal",
            "supported_modes": [
                "road",
                "rail"
            ],
            "latitude": 49.7474748,
            "longitude": 13.3775873
        },
        {
            "id": "OLO_2941",
            "name": "Olomouc Terminal",
            "supported_modes": [
                "road",
                "rail",
                "air"
            ],
            "latitude": 49.5955243,
            "longitude": 17.2517529
        },
        {
            "id": "LIB_2942",
            "name": "Liberec Terminal",
            "supported_modes": [
                "road",
                "rail"
            ],
            "latitude": 50.7671119,
            "longitude": 15.0561914
        },
        {
            "id": "COP_3034",
            "name": "Copenhagen Terminal",
            "supported_modes": [
                "road",
                "rail",
                "air"
            ],
            "latitude": 55.6776812,
            "longitude": 12.5709343
        },
        {
            "id": "ARH_3035",
            "name": "Arhus Terminal",
            "supported_modes": [
                "road",
                "rail",
                "air",
                "ship"
            ],
            "latitude": 56.1567366,
            "longitude": 10.210762
        },
        {
            "id": "ODE_3036",
            "name": "Odense Terminal",
            "supported_modes": [
                "road",
                "rail",
                "air"
            ],
            "latitude": 55.3959381,
            "longitude": 10.3883133
        },
        {
            "id": "AAL_3037",
            "name": "Aalborg Terminal",
            "supported_modes": [
                "road",
                "rail",
                "air"
            ],
            "latitude": 57.047999,
            "longitude": 9.9187012
        },
        {
            "id": "FRE_3038",
            "name": "Frederiksberg Terminal",
            "supported_modes": [
                "road",
                "rail",
                "air"
            ],
            "latitude": 55.679375,
            "longitude": 12.5346279
        },
        {
            "id": "ESB_3039",
            "name": "Esbjerg Terminal",
            "supported_modes": [
                "road",
                "rail",
                "air"
            ],
            "latitude": 55.4666667,
            "longitude": 8.4499998
        },
        {
            "id": "TAL_3375",
            "name": "Tallinn Terminal",
            "supported_modes": [
                "road",
                "air"
            ],
            "latitude": 59.4369583,
            "longitude": 24.7535267
        },
        {
            "id": "TAR_3376",
            "name": "Tartu Terminal",
            "supported_modes": [
                "road",
                "air"
            ],
            "latitude": 58.3806248,
            "longitude": 26.72509
        },
        {
            "id": "NAR_3377",
            "name": "Narva Terminal",
            "supported_modes": [
                "road"
            ],
            "latitude": 59.3772222,
            "longitude": 28.1902771
        },
        {
            "id": "KOH_3378",
            "name": "Kohtla-Jarve Terminal",
            "supported_modes": [
                "road"
            ],
            "latitude": 59.3986111,
            "longitude": 27.273056
        },
        {
            "id": "PAR_3379",
            "name": "Parnu Terminal",
            "supported_modes": [
                "road",
                "air"
            ],
            "latitude": 58.3747222,
            "longitude": 24.5136108
        },
        {
            "id": "VIL_3380",
            "name": "Viljandi Terminal",
            "supported_modes": [
                "road"
            ],
            "latitude": 58.3638889,
            "longitude": 25.5900002
        },
        {
            "id": "ADD_3475",
            "name": "Addis Ababa Terminal",
            "supported_modes": [
                "road",
                "air"
            ],
            "latitude": 9.0333333,
            "longitude": 38.7000008
        },
        {
            "id": "DIR_3476",
            "name": "Dire Dawa Terminal",
            "supported_modes": [
                "road",
                "air"
            ],
            "latitude": 9.5930556,
            "longitude": 41.8661118
        },
        {
            "id": "NAZ_3477",
            "name": "Nazret Terminal",
            "supported_modes": [
                "road",
                "air"
            ],
            "latitude": 8.55,
            "longitude": 39.2666664
        },
        {
            "id": "BAH_3478",
            "name": "Bahir Dar Terminal",
            "supported_modes": [
                "road",
                "air"
            ],
            "latitude": 11.6,
            "longitude": 37.3833351
        },
        {
            "id": "GON_3479",
            "name": "Gonder Terminal",
            "supported_modes": [
                "road",
                "air"
            ],
            "latitude": 12.6,
            "longitude": 37.4666672
        },
        {
            "id": "DES_3480",
            "name": "Dese Terminal",
            "supported_modes": [
                "road",
                "air"
            ],
            "latitude": 11.1333333,
            "longitude": 39.6333351
        },
        {
            "id": "HEL_3572",
            "name": "Helsinki Terminal",
            "supported_modes": [
                "road",
                "air"
            ],
            "latitude": 60.1755556,
            "longitude": 24.934166
        },
        {
            "id": "ESP_3573",
            "name": "Espoo Terminal",
            "supported_modes": [
                "road",
                "air"
            ],
            "latitude": 60.2166667,
            "longitude": 24.666666
        },
        {
            "id": "TAM_3574",
            "name": "Tampere Terminal",
            "supported_modes": [
                "road",
                "air"
            ],
            "latitude": 61.4991132,
            "longitude": 23.787117
        },
        {
            "id": "VAN_3575",
            "name": "Vantaa Terminal",
            "supported_modes": [
                "road",
                "air"
            ],
            "latitude": 60.2966805,
            "longitude": 25.0138092
        },
        {
            "id": "TUR_3576",
            "name": "Turku Terminal",
            "supported_modes": [
                "road",
                "air"
            ],
            "latitude": 60.45,
            "longitude": 22.2833328
        },
        {
            "id": "OUL_3577",
            "name": "Oulu Terminal",
            "supported_modes": [
                "road",
                "air"
            ],
            "latitude": 65.0166667,
            "longitude": 25.4666672
        },
        {
            "id": "PAR_3672",
            "name": "Paris Terminal",
            "supported_modes": [
                "road",
                "rail",
                "air"
            ],
            "latitude": 48.85341,
            "longitude": 2.3487999
        },
        {
            "id": "MAR_3673",
            "name": "Marseille Terminal",
            "supported_modes": [
                "road",
                "rail",
                "air"
            ],
            "latitude": 43.3,
            "longitude": 5.4000001
        },
        {
            "id": "LYO_3674",
            "name": "Lyon Terminal",
            "supported_modes": [
                "road",
                "rail",
                "air"
            ],
            "latitude": 45.75,
            "longitude": 4.8499999
        },
        {
            "id": "TOU_3675",
            "name": "Toulouse Terminal",
            "supported_modes": [
                "road",
                "rail",
                "air"
            ],
            "latitude": 43.6042619,
            "longitude": 1.4436722
        },
        {
            "id": "NIC_3676",
            "name": "Nice Terminal",
            "supported_modes": [
                "road",
                "rail",
                "air"
            ],
            "latitude": 43.7031261,
            "longitude": 7.2660828
        },
        {
            "id": "NAN_3677",
            "name": "Nantes Terminal",
            "supported_modes": [
                "road",
                "rail",
                "air"
            ],
            "latitude": 47.2172508,
            "longitude": -1.5533638
        },
        {
            "id": "BER_3970",
            "name": "Berlin Terminal",
            "supported_modes": [
                "road",
                "rail",
                "air"
            ],
            "latitude": 52.5166667,
            "longitude": 13.3999996
        },
        {
            "id": "HAM_3971",
            "name": "Hamburg Terminal",
            "supported_modes": [
                "road",
                "rail",
                "air",
                "ship"
            ],
            "latitude": 53.55,
            "longitude": 10.0
        },
        {
            "id": "MUE_3972",
            "name": "Muenchen Terminal",
            "supported_modes": [
                "road",
                "rail",
                "air"
            ],
            "latitude": 48.1376831,
            "longitude": 11.5743542
        },
        {
            "id": "KOE_3973",
            "name": "Koeln Terminal",
            "supported_modes": [
                "road",
                "rail",
                "air"
            ],
            "latitude": 50.9333333,
            "longitude": 6.9499998
        },
        {
            "id": "FRA_3974",
            "name": "Frankfurt am Main Terminal",
            "supported_modes": [
                "road",
                "rail",
                "air"
            ],
            "latitude": 50.1166667,
            "longitude": 8.6833334
        },
        {
            "id": "ESS_3975",
            "name": "Essen Terminal",
            "supported_modes": [
                "road",
                "rail",
                "air"
            ],
            "latitude": 51.45,
            "longitude": 7.0166669
        },
        {
            "id": "ACC_4070",
            "name": "Accra Terminal",
            "supported_modes": [
                "road",
                "air",
                "ship"
            ],
            "latitude": 5.55,
            "longitude": -0.2166667
        },
        {
            "id": "KUM_4071",
            "name": "Kumasi Terminal",
            "supported_modes": [
                "road",
                "air"
            ],
            "latitude": 6.6833333,
            "longitude": -1.6166667
        },
        {
            "id": "TAM_4072",
            "name": "Tamale Terminal",
            "supported_modes": [
                "road",
                "air"
            ],
            "latitude": 9.4,
            "longitude": -0.8333333
        },
        {
            "id": "TAK_4073",
            "name": "Takoradi Terminal",
            "supported_modes": [
                "road",
                "air",
                "ship"
            ],
            "latitude": 4.8833333,
            "longitude": -1.75
        },
        {
            "id": "ACH_4074",
            "name": "Achiaman Terminal",
            "supported_modes": [
                "road",
                "air",
                "ship"
            ],
            "latitude": 5.7,
            "longitude": -0.3333333
        },
        {
            "id": "TEM_4075",
            "name": "Tema Terminal",
            "supported_modes": [
                "road",
                "air",
                "ship"
            ],
            "latitude": 5.6166667,
            "longitude": -0.0166667
        },
        {
            "id": "ATH_4139",
            "name": "Athens Terminal",
            "supported_modes": [
                "road",
                "air",
                "ship"
            ],
            "latitude": 37.9833333,
            "longitude": 23.7333336
        },
        {
            "id": "THE_4140",
            "name": "Thessaloniki Terminal",
            "supported_modes": [
                "road",
                "air",
                "ship"
            ],
            "latitude": 40.6402778,
            "longitude": 22.9438896
        },
        {
            "id": "PIR_4141",
            "name": "Piraeus Terminal",
            "supported_modes": [
                "road",
                "air",
                "ship"
            ],
            "latitude": 37.9474464,
            "longitude": 23.637085
        },
        {
            "id": "PAT_4142",
            "name": "Patrai Terminal",
            "supported_modes": [
                "road",
                "air"
            ],
            "latitude": 38.2444444,
            "longitude": 21.7344437
        },
        {
            "id": "PER_4143",
            "name": "Peristerion Terminal",
            "supported_modes": [
                "road",
                "air",
                "ship"
            ],
            "latitude": 38.0166667,
            "longitude": 23.7000008
        },
        {
            "id": "IRA_4144",
            "name": "Irakleion Terminal",
            "supported_modes": [
                "road",
                "air"
            ],
            "latitude": 35.325,
            "longitude": 25.1305561
        },
        {
            "id": "BUD_4556",
            "name": "Budapest Terminal",
            "supported_modes": [
                "road",
                "rail",
                "air"
            ],
            "latitude": 47.5,
            "longitude": 19.083334
        },
        {
            "id": "DEB_4557",
            "name": "Debrecen Terminal",
            "supported_modes": [
                "road",
                "rail",
                "air"
            ],
            "latitude": 47.5333333,
            "longitude": 21.6333332
        },
        {
            "id": "MIS_4558",
            "name": "Miskolc Terminal",
            "supported_modes": [
                "road",
                "rail"
            ],
            "latitude": 48.1,
            "longitude": 20.7833328
        },
        {
            "id": "SZE_4559",
            "name": "Szeged Terminal",
            "supported_modes": [
                "road",
                "rail"
            ],
            "latitude": 46.2529981,
            "longitude": 20.1482391
        },
        {
            "id": "PEC_4560",
            "name": "Pecs Terminal",
            "supported_modes": [
                "road",
                "rail",
                "air"
            ],
            "latitude": 46.0833333,
            "longitude": 18.2333336
        },
        {
            "id": "GYO_4561",
            "name": "Gyor Terminal",
            "supported_modes": [
                "road",
                "rail"
            ],
            "latitude": 47.6833322,
            "longitude": 17.6351166
        },
        {
            "id": "MUM_4743",
            "name": "Mumbai Terminal",
            "supported_modes": [
                "road",
                "rail",
                "air"
            ],
            "latitude": 19.01441,
            "longitude": 72.8479385
        },
        {
            "id": "DEL_4744",
            "name": "Delhi Terminal",
            "supported_modes": [
                "road",
                "rail",
                "air"
            ],
            "latitude": 28.6666667,
            "longitude": 77.2166672
        },
        {
            "id": "BEN_4745",
            "name": "Bengaluru Terminal",
            "supported_modes": [
                "road",
                "rail",
                "air"
            ],
            "latitude": 12.9762267,
            "longitude": 77.6032944
        },
        {
            "id": "CAL_4746",
            "name": "Calcutta Terminal",
            "supported_modes": [
                "road",
                "rail",
                "air",
                "ship"
            ],
            "latitude": 22.5697222,
            "longitude": 88.3697205
        },
        {
            "id": "CHE_4747",
            "name": "Chennai Terminal",
            "supported_modes": [
                "road",
                "rail",
                "air",
                "ship"
            ],
            "latitude": 13.0878385,
            "longitude": 80.2784729
        },
        {
            "id": "AHM_4748",
            "name": "Ahmadabad Terminal",
            "supported_modes": [
                "road",
                "rail",
                "air"
            ],
            "latitude": 23.0333333,
            "longitude": 72.6166687
        },
        {
            "id": "JAK_4843",
            "name": "Jakarta Terminal",
            "supported_modes": [
                "road",
                "air",
                "ship"
            ],
            "latitude": -6.1744444,
            "longitude": 106.8294449
        },
        {
            "id": "SUR_4844",
            "name": "Surabaya Terminal",
            "supported_modes": [
                "road",
                "air",
                "ship"
            ],
            "latitude": -7.2491667,
            "longitude": 112.7508316
        },
        {
            "id": "MED_4845",
            "name": "Medan Terminal",
            "supported_modes": [
                "road",
                "air"
            ],
            "latitude": 3.5833333,
            "longitude": 98.6666641
        },
        {
            "id": "BAN_4846",
            "name": "Bandung Terminal",
            "supported_modes": [
                "road",
                "air"
            ],
            "latitude": -6.9127778,
            "longitude": 107.6205521
        },
        {
            "id": "BEK_4847",
            "name": "Bekasi Terminal",
            "supported_modes": [
                "road",
                "air",
                "ship"
            ],
            "latitude": -6.2366667,
            "longitude": 106.9919434
        },
        {
            "id": "PAL_4848",
            "name": "Palembang Terminal",
            "supported_modes": [
                "road",
                "air"
            ],
            "latitude": -2.9167253,
            "longitude": 104.7457962
        },
        {
            "id": "TEH_4943",
            "name": "Tehran Terminal",
            "supported_modes": [
                "road",
                "air"
            ],
            "latitude": 35.6719444,
            "longitude": 51.4244461
        },
        {
            "id": "MAS_4944",
            "name": "Mashhad Terminal",
            "supported_modes": [
                "road",
                "air"
            ],
            "latitude": 36.2958333,
            "longitude": 59.6119461
        },
        {
            "id": "ESF_4945",
            "name": "Esfahan Terminal",
            "supported_modes": [
                "road",
                "air"
            ],
            "latitude": 32.6597222,
            "longitude": 51.6713905
        },
        {
            "id": "KAR_4946",
            "name": "Karaj Terminal",
            "supported_modes": [
                "road",
                "air"
            ],
            "latitude": 35.8287611,
            "longitude": 50.9982033
        },
        {
            "id": "TAB_4947",
            "name": "Tabriz Terminal",
            "supported_modes": [
                "road",
                "air"
            ],
            "latitude": 38.08,
            "longitude": 46.2919426
        },
        {
            "id": "SHI_4948",
            "name": "Shiraz Terminal",
            "supported_modes": [
                "road",
                "air"
            ],
            "latitude": 29.615,
            "longitude": 52.5383339
        },
        {
            "id": "DUB_5106",
            "name": "Dublin Terminal",
            "supported_modes": [
                "road",
                "air",
                "ship"
            ],
            "latitude": 53.3330556,
            "longitude": -6.248889
        },
        {
            "id": "COR_5107",
            "name": "Cork Terminal",
            "supported_modes": [
                "road",
                "air",
                "ship"
            ],
            "latitude": 51.8986111,
            "longitude": -8.4958334
        },
        {
            "id": "DUN_5108",
            "name": "Dun Laoghaire Terminal",
            "supported_modes": [
                "road",
                "air",
                "ship"
            ],
            "latitude": 53.2939516,
            "longitude": -6.1358643
        },
        {
            "id": "LIM_5109",
            "name": "Limerick Terminal",
            "supported_modes": [
                "road",
                "air"
            ],
            "latitude": 52.6647222,
            "longitude": -8.6230555
        },
        {
            "id": "GAL_5110",
            "name": "Galway Terminal",
            "supported_modes": [
                "road",
                "air"
            ],
            "latitude": 53.2719444,
            "longitude": -9.0488892
        },
        {
            "id": "TAL_5111",
            "name": "Tallaght Terminal",
            "supported_modes": [
                "road",
                "air",
                "ship"
            ],
            "latitude": 53.2858965,
            "longitude": -6.3734436
        },
        {
            "id": "JER_5206",
            "name": "Jerusalem Terminal",
            "supported_modes": [
                "road",
                "air"
            ],
            "latitude": 31.7666667,
            "longitude": 35.2333336
        },
        {
            "id": "TEL_5207",
            "name": "Tel Aviv-Yafo Terminal",
            "supported_modes": [
                "road",
                "air",
                "ship"
            ],
            "latitude": 32.0677778,
            "longitude": 34.7647209
        },
        {
            "id": "HAI_5208",
            "name": "Haifa Terminal",
            "supported_modes": [
                "road",
                "air",
                "ship"
            ],
            "latitude": 32.8155556,
            "longitude": 34.9891663
        },
        {
            "id": "ASH_5209",
            "name": "Ashdod Terminal",
            "supported_modes": [
                "road",
                "air",
                "ship"
            ],
            "latitude": 31.8166667,
            "longitude": 34.6500015
        },
        {
            "id": "RIS_5210",
            "name": "Rishon LeZiyyon Terminal",
            "supported_modes": [
                "road",
                "air",
                "ship"
            ],
            "latitude": 31.9641667,
            "longitude": 34.8044434
        },
        {
            "id": "BEE_5211",
            "name": "Beersheba Terminal",
            "supported_modes": [
                "road",
                "air"
            ],
            "latitude": 31.2333333,
            "longitude": 34.7833328
        },
        {
            "id": "ROM_5305",
            "name": "Rome Terminal",
            "supported_modes": [
                "road",
                "rail",
                "air"
            ],
            "latitude": 41.9,
            "longitude": 12.4833336
        },
        {
            "id": "MIL_5306",
            "name": "Milano Terminal",
            "supported_modes": [
                "road",
                "rail",
                "air"
            ],
            "latitude": 45.4642694,
            "longitude": 9.1895056
        },
        {
            "id": "NAP_5307",
            "name": "Napoli Terminal",
            "supported_modes": [
                "road",
                "rail",
                "air"
            ],
            "latitude": 40.8333333,
            "longitude": 14.25
        },
        {
            "id": "TOR_5308",
            "name": "Torino Terminal",
            "supported_modes": [
                "road",
                "rail",
                "air"
            ],
            "latitude": 45.0704898,
            "longitude": 7.6868248
        },
        {
            "id": "PAL_5309",
            "name": "Palermo Terminal",
            "supported_modes": [
                "road",
                "rail",
                "air"
            ],
            "latitude": 38.1158198,
            "longitude": 13.3597612
        },
        {
            "id": "GEN_5310",
            "name": "Genova Terminal",
            "supported_modes": [
                "road",
                "rail",
                "air",
                "ship"
            ],
            "latitude": 44.4063163,
            "longitude": 8.9338589
        },
        {
            "id": "TOK_5483",
            "name": "Tokyo Terminal",
            "supported_modes": [
                "road",
                "rail",
                "air",
                "ship"
            ],
            "latitude": 35.6895266,
            "longitude": 139.6916809
        },
        {
            "id": "YOK_5484",
            "name": "Yokohama Terminal",
            "supported_modes": [
                "road",
                "rail",
                "air",
                "ship"
            ],
            "latitude": 35.45,
            "longitude": 139.6499939
        },
        {
            "id": "OSA_5485",
            "name": "Osaka Terminal",
            "supported_modes": [
                "road",
                "rail",
                "air",
                "ship"
            ],
            "latitude": 34.6937398,
            "longitude": 135.502182
        },
        {
            "id": "NAG_5486",
            "name": "Nagoya Terminal",
            "supported_modes": [
                "road",
                "rail",
                "air",
                "ship"
            ],
            "latitude": 35.1814728,
            "longitude": 136.9064026
        },
        {
            "id": "SAP_5487",
            "name": "Sapporo Terminal",
            "supported_modes": [
                "road",
                "rail",
                "air"
            ],
            "latitude": 43.0547222,
            "longitude": 141.3538818
        },
        {
            "id": "KOB_5488",
            "name": "Kobe Terminal",
            "supported_modes": [
                "road",
                "rail",
                "air",
                "ship"
            ],
            "latitude": 34.6833333,
            "longitude": 135.1666718
        },
        {
            "id": "ALM_5654",
            "name": "Almaty Terminal",
            "supported_modes": [
                "road",
                "rail",
                "air"
            ],
            "latitude": 43.25,
            "longitude": 76.9499969
        },
        {
            "id": "QAR_5655",
            "name": "Qaraghandy Terminal",
            "supported_modes": [
                "road",
                "rail",
                "air"
            ],
            "latitude": 49.7988889,
            "longitude": 73.0994415
        },
        {
            "id": "KAR_5656",
            "name": "Karagandy Terminal",
            "supported_modes": [
                "road",
                "rail"
            ],
            "latitude": 50.0666667,
            "longitude": 54.8666649
        },
        {
            "id": "SHY_5657",
            "name": "Shymkent Terminal",
            "supported_modes": [
                "road",
                "rail",
                "air"
            ],
            "latitude": 42.3,
            "longitude": 69.5999985
        },
        {
            "id": "TAR_5658",
            "name": "Taraz Terminal",
            "supported_modes": [
                "road",
                "rail",
                "air"
            ],
            "latitude": 42.9,
            "longitude": 71.3666687
        },
        {
            "id": "AST_5659",
            "name": "Astana Terminal",
            "supported_modes": [
                "road",
                "rail",
                "air"
            ],
            "latitude": 51.1811111,
            "longitude": 71.4277802
        },
        {
            "id": "NAI_5749",
            "name": "Nairobi Terminal",
            "supported_modes": [
                "road",
                "air"
            ],
            "latitude": -1.2833333,
            "longitude": 36.8166656
        },
        {
            "id": "MOM_5750",
            "name": "Mombasa Terminal",
            "supported_modes": [
                "road",
                "air",
                "ship"
            ],
            "latitude": -4.05,
            "longitude": 39.6666679
        },
        {
            "id": "NAK_5751",
            "name": "Nakuru Terminal",
            "supported_modes": [
                "road"
            ],
            "latitude": -0.2833333,
            "longitude": 36.0666656
        },
        {
            "id": "ELD_5752",
            "name": "Eldoret Terminal",
            "supported_modes": [
                "road",
                "air"
            ],
            "latitude": 0.5166667,
            "longitude": 35.2833328
        },
        {
            "id": "KIS_5753",
            "name": "Kisumu Terminal",
            "supported_modes": [
                "road",
                "air"
            ],
            "latitude": -0.1,
            "longitude": 34.75
        },
        {
            "id": "THI_5754",
            "name": "Thika Terminal",
            "supported_modes": [
                "road",
                "air"
            ],
            "latitude": -1.0332596,
            "longitude": 37.0693283
        },
        {
            "id": "RIG_5866",
            "name": "Riga Terminal",
            "supported_modes": [
                "road",
                "air"
            ],
            "latitude": 56.95,
            "longitude": 24.1000004
        },
        {
            "id": "DAU_5867",
            "name": "Daugavpils Terminal",
            "supported_modes": [
                "road",
                "air"
            ],
            "latitude": 55.8833333,
            "longitude": 26.5333328
        },
        {
            "id": "VEC_5868",
            "name": "Vec-Liepaja Terminal",
            "supported_modes": [
                "road",
                "air"
            ],
            "latitude": 56.5333333,
            "longitude": 21.0166664
        },
        {
            "id": "LIE_5869",
            "name": "Liepaja Terminal",
            "supported_modes": [
                "road",
                "air"
            ],
            "latitude": 56.5166667,
            "longitude": 21.0166664
        },
        {
            "id": "JEL_5870",
            "name": "Jelgava Terminal",
            "supported_modes": [
                "road",
                "air"
            ],
            "latitude": 56.65,
            "longitude": 23.7127781
        },
        {
            "id": "JUR_5871",
            "name": "Jurmala Terminal",
            "supported_modes": [
                "road",
                "air"
            ],
            "latitude": 56.9608333,
            "longitude": 23.75
        },
        {
            "id": "VIL_6040",
            "name": "Vilnius Terminal",
            "supported_modes": [
                "road",
                "air"
            ],
            "latitude": 54.6833333,
            "longitude": 25.3166676
        },
        {
            "id": "KAU_6041",
            "name": "Kaunas Terminal",
            "supported_modes": [
                "road",
                "air"
            ],
            "latitude": 54.9,
            "longitude": 23.8999996
        },
        {
            "id": "KLA_6042",
            "name": "Klaipeda Terminal",
            "supported_modes": [
                "road",
                "air"
            ],
            "latitude": 55.7172222,
            "longitude": 21.1175003
        },
        {
            "id": "SIA_6043",
            "name": "Siauliai Terminal",
            "supported_modes": [
                "road",
                "air"
            ],
            "latitude": 55.9333333,
            "longitude": 23.3166676
        },
        {
            "id": "DAI_6044",
            "name": "Dainava (Kaunas) Terminal",
            "supported_modes": [
                "road",
                "air"
            ],
            "latitude": 54.915254,
            "longitude": 23.9683056
        },
        {
            "id": "PAN_6045",
            "name": "Panevezys Terminal",
            "supported_modes": [
                "road",
                "air"
            ],
            "latitude": 55.7333333,
            "longitude": 24.3500004
        },
        {
            "id": "LIL_6409",
            "name": "Lilongwe Terminal",
            "supported_modes": [
                "road",
                "air"
            ],
            "latitude": -13.9833333,
            "longitude": 33.7833328
        },
        {
            "id": "BLA_6410",
            "name": "Blantyre Terminal",
            "supported_modes": [
                "road",
                "air"
            ],
            "latitude": -15.7833333,
            "longitude": 35.0
        },
        {
            "id": "ZOM_6411",
            "name": "Zomba Terminal",
            "supported_modes": [
                "road"
            ],
            "latitude": -15.3833333,
            "longitude": 35.3333321
        },
        {
            "id": "KAS_6412",
            "name": "Kasungu Terminal",
            "supported_modes": [
                "road",
                "air"
            ],
            "latitude": -13.0333333,
            "longitude": 33.4833336
        },
        {
            "id": "MAN_6413",
            "name": "Mangochi Terminal",
            "supported_modes": [
                "road",
                "air"
            ],
            "latitude": -14.4666667,
            "longitude": 35.2666664
        },
        {
            "id": "KAR_6414",
            "name": "Karonga Terminal",
            "supported_modes": [
                "road",
                "air"
            ],
            "latitude": -9.9333333,
            "longitude": 33.9333344
        },
        {
            "id": "MEX_6691",
            "name": "Mexico City Terminal",
            "supported_modes": [
                "road",
                "air"
            ],
            "latitude": 19.4341667,
            "longitude": -99.1386108
        },
        {
            "id": "ECA_6692",
            "name": "Ecatepec Terminal",
            "supported_modes": [
                "road",
                "air"
            ],
            "latitude": 19.6011111,
            "longitude": -99.0524979
        },
        {
            "id": "GUA_6693",
            "name": "Guadalajara Terminal",
            "supported_modes": [
                "road",
                "air"
            ],
            "latitude": 20.6666667,
            "longitude": -103.3333359
        },
        {
            "id": "CIU_6694",
            "name": "Ciudad Juarez Terminal",
            "supported_modes": [
                "road",
                "air"
            ],
            "latitude": 31.7333333,
            "longitude": -106.4833298
        },
        {
            "id": "PUE_6695",
            "name": "Puebla de Zaragoza Terminal",
            "supported_modes": [
                "road",
                "air"
            ],
            "latitude": 19.05,
            "longitude": -98.1999969
        },
        {
            "id": "TIJ_6696",
            "name": "Tijuana Terminal",
            "supported_modes": [
                "road",
                "air"
            ],
            "latitude": 32.5333333,
            "longitude": -117.0166702
        },
        {
            "id": "CAS_6885",
            "name": "Casablanca Terminal",
            "supported_modes": [
                "road",
                "air",
                "ship"
            ],
            "latitude": 33.59,
            "longitude": -7.6100001
        },
        {
            "id": "RAB_6886",
            "name": "Rabat Terminal",
            "supported_modes": [
                "road",
                "air"
            ],
            "latitude": 34.02,
            "longitude": -6.8299999
        },
        {
            "id": "FES_6887",
            "name": "Fes Terminal",
            "supported_modes": [
                "road",
                "air"
            ],
            "latitude": 34.05,
            "longitude": -4.98
        },
        {
            "id": "MAR_6888",
            "name": "Marrakech Terminal",
            "supported_modes": [
                "road",
                "air"
            ],
            "latitude": 31.63,
            "longitude": -8.0
        },
        {
            "id": "AGA_6889",
            "name": "Agadir Terminal",
            "supported_modes": [
                "road",
                "air",
                "ship"
            ],
            "latitude": 30.4,
            "longitude": -9.6000004
        },
        {
            "id": "TAN_6890",
            "name": "Tangier Terminal",
            "supported_modes": [
                "road",
                "air",
                "ship"
            ],
            "latitude": 35.78,
            "longitude": -5.8099999
        },
        {
            "id": "AMS_3145",
            "name": "Amsterdam Terminal",
            "supported_modes": [
                "road",
                "rail",
                "air"
            ],
            "latitude": 52.373084,
            "longitude": 4.8999023
        },
        {
            "id": "ROT_3146",
            "name": "Rotterdam Terminal",
            "supported_modes": [
                "road",
                "rail",
                "air",
                "ship"
            ],
            "latitude": 51.9225,
            "longitude": 4.479167
        },
        {
            "id": "THE_3147",
            "name": "The Hague Terminal",
            "supported_modes": [
                "road",
                "rail",
                "air",
                "ship"
            ],
            "latitude": 52.076667,
            "longitude": 4.2986112
        },
        {
            "id": "UTR_3148",
            "name": "Utrecht Terminal",
            "supported_modes": [
                "road",
                "rail",
                "air"
            ],
            "latitude": 52.090833,
            "longitude": 5.1222219
        },
        {
            "id": "EIN_3149",
            "name": "Eindhoven Terminal",
            "supported_modes": [
                "road",
                "rail",
                "air"
            ],
            "latitude": 51.440833,
            "longitude": 5.477778
        },
        {
            "id": "TIL_3150",
            "name": "Tilburg Terminal",
            "supported_modes": [
                "road",
                "rail",
                "air"
            ],
            "latitude": 51.5555149,
            "longitude": 5.0913048
        },
        {
            "id": "AUC_7018",
            "name": "Auckland Terminal",
            "supported_modes": [
                "road",
                "air",
                "ship"
            ],
            "latitude": -36.8666667,
            "longitude": 174.7666626
        },
        {
            "id": "WEL_7019",
            "name": "Wellington Terminal",
            "supported_modes": [
                "road",
                "air",
                "ship"
            ],
            "latitude": -41.2785362,
            "longitude": 174.7766418
        },
        {
            "id": "CHR_7020",
            "name": "Christchurch Terminal",
            "supported_modes": [
                "road",
                "air",
                "ship"
            ],
            "latitude": -43.5333333,
            "longitude": 172.6333313
        },
        {
            "id": "MAN_7021",
            "name": "Manakau Terminal",
            "supported_modes": [
                "road",
                "air"
            ],
            "latitude": -40.7166667,
            "longitude": 175.2166595
        },
        {
            "id": "NOR_7022",
            "name": "North Shore Terminal",
            "supported_modes": [
                "road",
                "air",
                "ship"
            ],
            "latitude": -36.8,
            "longitude": 174.75
        },
        {
            "id": "WAI_7023",
            "name": "Waitakere Terminal",
            "supported_modes": [
                "road",
                "air",
                "ship"
            ],
            "latitude": -36.85,
            "longitude": 174.5500031
        },
        {
            "id": "NIA_7318",
            "name": "Niamey Terminal",
            "supported_modes": [
                "road",
                "air"
            ],
            "latitude": 13.5166667,
            "longitude": 2.1166668
        },
        {
            "id": "ZIN_7319",
            "name": "Zinder Terminal",
            "supported_modes": [
                "road",
                "air"
            ],
            "latitude": 13.8,
            "longitude": 8.9833336
        },
        {
            "id": "MAR_7320",
            "name": "Maradi Terminal",
            "supported_modes": [
                "road",
                "air"
            ],
            "latitude": 13.4916667,
            "longitude": 7.0963888
        },
        {
            "id": "ALA_7321",
            "name": "Alarsas Terminal",
            "supported_modes": [
                "road",
                "air"
            ],
            "latitude": 17.0166667,
            "longitude": 8.0
        },
        {
            "id": "TAH_7322",
            "name": "Tahoua Terminal",
            "supported_modes": [
                "road",
                "air"
            ],
            "latitude": 14.8902778,
            "longitude": 5.2677779
        },
        {
            "id": "DOS_7323",
            "name": "Dosso Terminal",
            "supported_modes": [
                "road"
            ],
            "latitude": 13.0444444,
            "longitude": 3.1947222
        },
        {
            "id": "PYO_7356",
            "name": "Pyongyang Terminal",
            "supported_modes": [
                "road",
                "rail",
                "air"
            ],
            "latitude": 39.0194444,
            "longitude": 125.7547226
        },
        {
            "id": "HAM_7357",
            "name": "Hamhung Terminal",
            "supported_modes": [
                "road",
                "rail",
                "air"
            ],
            "latitude": 39.9183333,
            "longitude": 127.5363922
        },
        {
            "id": "HUN_7358",
            "name": "Hungnam Terminal",
            "supported_modes": [
                "road",
                "rail",
                "air"
            ],
            "latitude": 39.8316667,
            "longitude": 127.6186142
        },
        {
            "id": "KAE_7359",
            "name": "Kaesong Terminal",
            "supported_modes": [
                "road",
                "rail"
            ],
            "latitude": 37.9708333,
            "longitude": 126.5544434
        },
        {
            "id": "WON_7360",
            "name": "Wonsan Terminal",
            "supported_modes": [
                "road",
                "rail",
                "air"
            ],
            "latitude": 39.1527778,
            "longitude": 127.4436111
        },
        {
            "id": "CHO_7361",
            "name": "Chongjin Terminal",
            "supported_modes": [
                "road",
                "rail",
                "air"
            ],
            "latitude": 41.7955556,
            "longitude": 129.7758331
        },
        {
            "id": "KAR_7454",
            "name": "Karachi Terminal",
            "supported_modes": [
                "road",
                "air",
                "ship"
            ],
            "latitude": 24.8666667,
            "longitude": 67.0500031
        },
        {
            "id": "LAH_7455",
            "name": "Lahore Terminal",
            "supported_modes": [
                "road",
                "air"
            ],
            "latitude": 31.5497222,
            "longitude": 74.3436127
        },
        {
            "id": "FAI_7456",
            "name": "Faisalabad Terminal",
            "supported_modes": [
                "road",
                "air"
            ],
            "latitude": 31.4166667,
            "longitude": 73.0833359
        },
        {
            "id": "RAW_7457",
            "name": "Rawalpindi Terminal",
            "supported_modes": [
                "road",
                "air"
            ],
            "latitude": 33.6,
            "longitude": 73.0666656
        },
        {
            "id": "MUL_7458",
            "name": "Multan Terminal",
            "supported_modes": [
                "road",
                "air"
            ],
            "latitude": 30.1955556,
            "longitude": 71.4752808
        },
        {
            "id": "HYD_7459",
            "name": "Hyderabad Terminal",
            "supported_modes": [
                "road",
                "air"
            ],
            "latitude": 25.3666667,
            "longitude": 68.3666687
        },
        {
            "id": "LIM_7803",
            "name": "Lima Terminal",
            "supported_modes": [
                "road",
                "air",
                "ship"
            ],
            "latitude": -12.05,
            "longitude": -77.0500031
        },
        {
            "id": "ARE_7804",
            "name": "Arequipa Terminal",
            "supported_modes": [
                "road",
                "air"
            ],
            "latitude": -16.3988889,
            "longitude": -71.5350037
        },
        {
            "id": "CAL_7805",
            "name": "Callao Terminal",
            "supported_modes": [
                "road",
                "air",
                "ship"
            ],
            "latitude": -12.0666667,
            "longitude": -77.1500015
        },
        {
            "id": "TRU_7806",
            "name": "Trujillo Terminal",
            "supported_modes": [
                "road",
                "air"
            ],
            "latitude": -8.1159943,
            "longitude": -79.0299759
        },
        {
            "id": "CHI_7807",
            "name": "Chiclayo Terminal",
            "supported_modes": [
                "road",
                "air"
            ],
            "latitude": -6.7736111,
            "longitude": -79.8416672
        },
        {
            "id": "IQU_7808",
            "name": "Iquitos Terminal",
            "supported_modes": [
                "road",
                "air"
            ],
            "latitude": -3.7480556,
            "longitude": -73.2472229
        },
        {
            "id": "MAN_7903",
            "name": "Manila Terminal",
            "supported_modes": [
                "road",
                "air",
                "ship"
            ],
            "latitude": 14.6041667,
            "longitude": 120.9822235
        },
        {
            "id": "DAV_7904",
            "name": "Davao Terminal",
            "supported_modes": [
                "road",
                "air"
            ],
            "latitude": 7.0730556,
            "longitude": 125.6127777
        },
        {
            "id": "CEB_7905",
            "name": "Cebu City Terminal",
            "supported_modes": [
                "road",
                "air"
            ],
            "latitude": 10.3111111,
            "longitude": 123.8916702
        },
        {
            "id": "ANT_7906",
            "name": "Antipolo Terminal",
            "supported_modes": [
                "road",
                "air",
                "ship"
            ],
            "latitude": 14.5863889,
            "longitude": 121.1752777
        },
        {
            "id": "ZAM_7907",
            "name": "Zamboanga Terminal",
            "supported_modes": [
                "road",
                "air"
            ],
            "latitude": 6.9102778,
            "longitude": 122.0738907
        },
        {
            "id": "MAN_7908",
            "name": "Mansilingan Terminal",
            "supported_modes": [
                "road",
                "air"
            ],
            "latitude": 10.6311111,
            "longitude": 122.9788895
        },
        {
            "id": "WAR_8003",
            "name": "Warsaw Terminal",
            "supported_modes": [
                "road",
                "rail",
                "air"
            ],
            "latitude": 52.25,
            "longitude": 21.0
        },
        {
            "id": "LOD_8004",
            "name": "Lodz Terminal",
            "supported_modes": [
                "road",
                "rail",
                "air"
            ],
            "latitude": 51.75,
            "longitude": 19.4666672
        },
        {
            "id": "KRA_8005",
            "name": "Krakow Terminal",
            "supported_modes": [
                "road",
                "rail",
                "air"
            ],
            "latitude": 50.0833333,
            "longitude": 19.916666
        },
        {
            "id": "WRO_8006",
            "name": "Wroclaw Terminal",
            "supported_modes": [
                "road",
                "rail",
                "air"
            ],
            "latitude": 51.1,
            "longitude": 17.0333328
        },
        {
            "id": "POZ_8007",
            "name": "Poznan Terminal",
            "supported_modes": [
                "road",
                "rail",
                "air"
            ],
            "latitude": 52.4166667,
            "longitude": 16.9666672
        },
        {
            "id": "GDA_8008",
            "name": "Gdansk Terminal",
            "supported_modes": [
                "road",
                "rail",
                "air",
                "ship"
            ],
            "latitude": 54.35,
            "longitude": 18.666666
        },
        {
            "id": "LIS_8103",
            "name": "Lisbon Terminal",
            "supported_modes": [
                "road",
                "air",
                "ship"
            ],
            "latitude": 38.7166667,
            "longitude": -9.1333332
        },
        {
            "id": "POR_8104",
            "name": "Porto Terminal",
            "supported_modes": [
                "road",
                "air",
                "ship"
            ],
            "latitude": 41.15,
            "longitude": -8.6166668
        },
        {
            "id": "AMA_8105",
            "name": "Amadora Terminal",
            "supported_modes": [
                "road",
                "air",
                "ship"
            ],
            "latitude": 38.7538155,
            "longitude": -9.2308331
        },
        {
            "id": "BRA_8106",
            "name": "Braga Terminal",
            "supported_modes": [
                "road",
                "air",
                "ship"
            ],
            "latitude": 41.55,
            "longitude": -8.4333334
        },
        {
            "id": "SET_8107",
            "name": "Setubal Terminal",
            "supported_modes": [
                "road",
                "air",
                "ship"
            ],
            "latitude": 38.5243986,
            "longitude": -8.8881969
        },
        {
            "id": "COI_8108",
            "name": "Coimbra Terminal",
            "supported_modes": [
                "road"
            ],
            "latitude": 40.2,
            "longitude": -8.416667
        },
        {
            "id": "BUC_8215",
            "name": "Bucharest Terminal",
            "supported_modes": [
                "road",
                "rail",
                "air"
            ],
            "latitude": 44.4333333,
            "longitude": 26.1000004
        },
        {
            "id": "IAS_8216",
            "name": "Iasi Terminal",
            "supported_modes": [
                "road",
                "rail",
                "air"
            ],
            "latitude": 47.1666667,
            "longitude": 27.6000004
        },
        {
            "id": "CLU_8217",
            "name": "Cluj-Napoca Terminal",
            "supported_modes": [
                "road",
                "rail",
                "air"
            ],
            "latitude": 46.7666667,
            "longitude": 23.6000004
        },
        {
            "id": "TIM_8218",
            "name": "Timisoara Terminal",
            "supported_modes": [
                "road",
                "rail",
                "air"
            ],
            "latitude": 45.7494444,
            "longitude": 21.2272224
        },
        {
            "id": "CRA_8219",
            "name": "Craiova Terminal",
            "supported_modes": [
                "road",
                "rail",
                "air"
            ],
            "latitude": 44.3166667,
            "longitude": 23.7999992
        },
        {
            "id": "CON_8220",
            "name": "Constanta Terminal",
            "supported_modes": [
                "road",
                "rail",
                "air",
                "ship"
            ],
            "latitude": 44.1833333,
            "longitude": 28.6499996
        },
        {
            "id": "CAP_8801",
            "name": "Cape Town Terminal",
            "supported_modes": [
                "road",
                "air",
                "ship"
            ],
            "latitude": -33.9166667,
            "longitude": 18.416666
        },
        {
            "id": "DUR_8802",
            "name": "Durban Terminal",
            "supported_modes": [
                "road",
                "air",
                "ship"
            ],
            "latitude": -29.85,
            "longitude": 31.0166664
        },
        {
            "id": "JOH_8803",
            "name": "Johannesburg Terminal",
            "supported_modes": [
                "road",
                "air"
            ],
            "latitude": -26.2,
            "longitude": 28.083334
        },
        {
            "id": "SOW_8804",
            "name": "Soweto Terminal",
            "supported_modes": [
                "road",
                "air"
            ],
            "latitude": -26.2666667,
            "longitude": 27.8666668
        },
        {
            "id": "PRE_8805",
            "name": "Pretoria Terminal",
            "supported_modes": [
                "road",
                "air"
            ],
            "latitude": -25.7069444,
            "longitude": 28.2294445
        },
        {
            "id": "POR_8806",
            "name": "Port Elizabeth Terminal",
            "supported_modes": [
                "road",
                "air",
                "ship"
            ],
            "latitude": -33.9666667,
            "longitude": 25.583334
        },
        {
            "id": "MAD_8984",
            "name": "Madrid Terminal",
            "supported_modes": [
                "road",
                "rail",
                "air"
            ],
            "latitude": 40.4165021,
            "longitude": -3.7025642
        },
        {
            "id": "BAR_8985",
            "name": "Barcelona Terminal",
            "supported_modes": [
                "road",
                "rail",
                "air",
                "ship"
            ],
            "latitude": 41.3887869,
            "longitude": 2.1589851
        },
        {
            "id": "VAL_8986",
            "name": "Valencia Terminal",
            "supported_modes": [
                "road",
                "rail",
                "air",
                "ship"
            ],
            "latitude": 39.4697524,
            "longitude": -0.3773868
        },
        {
            "id": "SEV_8987",
            "name": "Sevilla Terminal",
            "supported_modes": [
                "road",
                "rail",
                "air"
            ],
            "latitude": 37.3772222,
            "longitude": -5.9869442
        },
        {
            "id": "ZAR_8988",
            "name": "Zaragoza Terminal",
            "supported_modes": [
                "road",
                "rail",
                "air"
            ],
            "latitude": 41.6560643,
            "longitude": -0.8773398
        },
        {
            "id": "MAL_8989",
            "name": "Malaga Terminal",
            "supported_modes": [
                "road",
                "rail",
                "air",
                "ship"
            ],
            "latitude": 36.7201559,
            "longitude": -4.4203448
        },
        {
            "id": "STO_9262",
            "name": "Stockholm Terminal",
            "supported_modes": [
                "road",
                "rail",
                "air"
            ],
            "latitude": 59.3325765,
            "longitude": 18.0649033
        },
        {
            "id": "GOT_9263",
            "name": "Goteborg Terminal",
            "supported_modes": [
                "road",
                "rail",
                "air",
                "ship"
            ],
            "latitude": 57.7071623,
            "longitude": 11.9667931
        },
        {
            "id": "MAL_9264",
            "name": "Malmoe Terminal",
            "supported_modes": [
                "road",
                "rail",
                "air"
            ],
            "latitude": 55.6058691,
            "longitude": 13.0007315
        },
        {
            "id": "UPP_9265",
            "name": "Uppsala Terminal",
            "supported_modes": [
                "road",
                "rail",
                "air"
            ],
            "latitude": 59.8585015,
            "longitude": 17.6454277
        },
        {
            "id": "KIS_9266",
            "name": "Kista Terminal",
            "supported_modes": [
                "road",
                "rail",
                "air"
            ],
            "latitude": 59.4031612,
            "longitude": 17.9447937
        },
        {
            "id": "VAS_9267",
            "name": "Vasteras Terminal",
            "supported_modes": [
                "road",
                "rail",
                "air"
            ],
            "latitude": 59.6161738,
            "longitude": 16.5527592
        }
    ],
    "mode_factors": {
        "road": {
            "cost_per_ton_km": 1.2,
            "emissions_kg_per_ton_km": 0.09
        },
        "rail": {
            "cost_per_ton_km": 0.7,
            "emissions_kg_per_ton_km": 0.025
        },
        "air": {
            "cost_per_ton_km": 3.5,
            "emissions_kg_per_ton_km": 0.6
        },
        "ship": {
            "cost_per_ton_km": 0.4,
            "emissions_kg_per_ton_km": 0.015
        }
    },
    "capacities": {
        "road": 40.0,
        "rail": 1000.0,
        "air": 50.0,
        "ship": 8000.0,
        "waiting": 100.0,
        "transfer": 25.0
    },
    "default_fixed_costs": {
        "transport": {
            "road": 150.0,
            "rail": 500.0,
            "air": 1200.0,
            "ship": 800.0
        },
        "waiting": 0.0,
        "transfer": 100.0
    },
    "default_fixed_emissions": {
        "transport": {
            "road": 30.0,
            "rail": 80.0,
            "air": 250.0,
            "ship": 120.0
        },
        "waiting": 0.0,
        "transfer": 10.0
    },
    "default_variable_factors": {
        "waiting_cost_per_hour": 5.0,
        "waiting_emissions_per_hour": 0.0,
        "transfer_cost_per_ton": 50.0,
        "transfer_emissions_per_ton": 5.0
    },
    "arc_templates": [
        {
            "id": "ALG_185_BAB_189_road",
            "arc_type": "transport",
            "from": "ALG_185",
            "to": "BAB_189",
            "mode": "road",
            "dist": 14.5,
            "departure_minutes": [
                0,
                60,
                120,
                180,
                240,
                300,
                360,
                420,
                480,
                540,
                600,
                660,
                720,
                780,
                840,
                900,
                960,
                1020,
                1080,
                1140,
                1200,
                1260,
                1320,
                1380
            ],
            "duration_min": 17
        },
        {
            "id": "ALG_185_BAT_188_road",
            "arc_type": "transport",
            "from": "ALG_185",
            "to": "BAT_188",
            "mode": "road",
            "dist": 391.0,
            "departure_minutes": [
                0,
                60,
                120,
                180,
                240,
                300,
                360,
                420,
                480,
                540,
                600,
                660,
                720,
                780,
                840,
                900,
                960,
                1020,
                1080,
                1140,
                1200,
                1260,
                1320,
                1380
            ],
            "duration_min": 296
        },
        {
            "id": "ALG_185_CON_187_road",
            "arc_type": "transport",
            "from": "ALG_185",
            "to": "CON_187",
            "mode": "road",
            "dist": 390.4,
            "departure_minutes": [
                0,
                60,
                120,
                180,
                240,
                300,
                360,
                420,
                480,
                540,
                600,
                660,
                720,
                780,
                840,
                900,
                960,
                1020,
                1080,
                1140,
                1200,
                1260,
                1320,
                1380
            ],
            "duration_min": 277
        },
        {
            "id": "ORA_186_ALG_185_road",
            "arc_type": "transport",
            "from": "ORA_186",
            "to": "ALG_185",
            "mode": "road",
            "dist": 416.1,
            "departure_minutes": [
                0,
                60,
                120,
                180,
                240,
                300,
                360,
                420,
                480,
                540,
                600,
                660,
                720,
                780,
                840,
                900,
                960,
                1020,
                1080,
                1140,
                1200,
                1260,
                1320,
                1380
            ],
            "duration_min": 284
        },
        {
            "id": "ORA_186_BAB_189_road",
            "arc_type": "transport",
            "from": "ORA_186",
            "to": "BAB_189",
            "mode": "road",
            "dist": 419.7,
            "departure_minutes": [
                0,
                60,
                120,
                180,
                240,
                300,
                360,
                420,
                480,
                540,
                600,
                660,
                720,
                780,
                840,
                900,
                960,
                1020,
                1080,
                1140,
                1200,
                1260,
                1320,
                1380
            ],
            "duration_min": 289
        },
        {
            "id": "ORA_186_FES_6887_road",
            "arc_type": "transport",
            "from": "ORA_186",
            "to": "FES_6887",
            "mode": "road",
            "dist": 2973.7,
            "departure_minutes": [
                0,
                60,
                120,
                180,
                240,
                300,
                360,
                420,
                480,
                540,
                600,
                660,
                720,
                780,
                840,
                900,
                960,
                1020,
                1080,
                1140,
                1200,
                1260,
                1320,
                1380
            ],
            "duration_min": 3339
        },
        {
            "id": "CON_187_BAT_188_road",
            "arc_type": "transport",
            "from": "CON_187",
            "to": "BAT_188",
            "mode": "road",
            "dist": 110.4,
            "departure_minutes": [
                0,
                60,
                120,
                180,
                240,
                300,
                360,
                420,
                480,
                540,
                600,
                660,
                720,
                780,
                840,
                900,
                960,
                1020,
                1080,
                1140,
                1200,
                1260,
                1320,
                1380
            ],
            "duration_min": 111
        },
        {
            "id": "CON_187_ANN_190_road",
            "arc_type": "transport",
            "from": "CON_187",
            "to": "ANN_190",
            "mode": "road",
            "dist": 156.5,
            "departure_minutes": [
                0,
                60,
                120,
                180,
                240,
                300,
                360,
                420,
                480,
                540,
                600,
                660,
                720,
                780,
                840,
                900,
                960,
                1020,
                1080,
                1140,
                1200,
                1260,
                1320,
                1380
            ],
            "duration_min": 116
        },
        {
            "id": "CON_187_BAB_189_road",
            "arc_type": "transport",
            "from": "CON_187",
            "to": "BAB_189",
            "mode": "road",
            "dist": 379.0,
            "departure_minutes": [
                0,
                60,
                120,
                180,
                240,
                300,
                360,
                420,
                480,
                540,
                600,
                660,
                720,
                780,
                840,
                900,
                960,
                1020,
                1080,
                1140,
                1200,
                1260,
                1320,
                1380
            ],
            "duration_min": 269
        },
        {
            "id": "BAT_188_CON_187_road",
            "arc_type": "transport",
            "from": "BAT_188",
            "to": "CON_187",
            "mode": "road",
            "dist": 111.2,
            "departure_minutes": [
                0,
                60,
                120,
                180,
                240,
                300,
                360,
                420,
                480,
                540,
                600,
                660,
                720,
                780,
                840,
                900,
                960,
                1020,
                1080,
                1140,
                1200,
                1260,
                1320,
                1380
            ],
            "duration_min": 112
        },
        {
            "id": "BAT_188_ANN_190_road",
            "arc_type": "transport",
            "from": "BAT_188",
            "to": "ANN_190",
            "mode": "road",
            "dist": 263.6,
            "departure_minutes": [
                0,
                60,
                120,
                180,
                240,
                300,
                360,
                420,
                480,
                540,
                600,
                660,
                720,
                780,
                840,
                900,
                960,
                1020,
                1080,
                1140,
                1200,
                1260,
                1320,
                1380
            ],
            "duration_min": 214
        },
        {
            "id": "BAT_188_BAB_189_road",
            "arc_type": "transport",
            "from": "BAT_188",
            "to": "BAB_189",
            "mode": "road",
            "dist": 381.9,
            "departure_minutes": [
                0,
                60,
                120,
                180,
                240,
                300,
                360,
                420,
                480,
                540,
                600,
                660,
                720,
                780,
                840,
                900,
                960,
                1020,
                1080,
                1140,
                1200,
                1260,
                1320,
                1380
            ],
            "duration_min": 291
        },
        {
            "id": "BAB_189_ALG_185_road",
            "arc_type": "transport",
            "from": "BAB_189",
            "to": "ALG_185",
            "mode": "road",
            "dist": 15.9,
            "departure_minutes": [
                0,
                60,
                120,
                180,
                240,
                300,
                360,
                420,
                480,
                540,
                600,
                660,
                720,
                780,
                840,
                900,
                960,
                1020,
                1080,
                1140,
                1200,
                1260,
                1320,
                1380
            ],
            "duration_min": 18
        },
        {
            "id": "BAB_189_BAT_188_road",
            "arc_type": "transport",
            "from": "BAB_189",
            "to": "BAT_188",
            "mode": "road",
            "dist": 379.2,
            "departure_minutes": [
                0,
                60,
                120,
                180,
                240,
                300,
                360,
                420,
                480,
                540,
                600,
                660,
                720,
                780,
                840,
                900,
                960,
                1020,
                1080,
                1140,
                1200,
                1260,
                1320,
                1380
            ],
            "duration_min": 288
        },
        {
            "id": "BAB_189_CON_187_road",
            "arc_type": "transport",
            "from": "BAB_189",
            "to": "CON_187",
            "mode": "road",
            "dist": 378.6,
            "departure_minutes": [
                0,
                60,
                120,
                180,
                240,
                300,
                360,
                420,
                480,
                540,
                600,
                660,
                720,
                780,
                840,
                900,
                960,
                1020,
                1080,
                1140,
                1200,
                1260,
                1320,
                1380
            ],
            "duration_min": 268
        },
        {
            "id": "ANN_190_CON_187_road",
            "arc_type": "transport",
            "from": "ANN_190",
            "to": "CON_187",
            "mode": "road",
            "dist": 141.3,
            "departure_minutes": [
                0,
                60,
                120,
                180,
                240,
                300,
                360,
                420,
                480,
                540,
                600,
                660,
                720,
                780,
                840,
                900,
                960,
                1020,
                1080,
                1140,
                1200,
                1260,
                1320,
                1380
            ],
            "duration_min": 106
        },
        {
            "id": "ANN_190_BAT_188_road",
            "arc_type": "transport",
            "from": "ANN_190",
            "to": "BAT_188",
            "mode": "road",
            "dist": 253.7,
            "departure_minutes": [
                0,
                60,
                120,
                180,
                240,
                300,
                360,
                420,
                480,
                540,
                600,
                660,
                720,
                780,
                840,
                900,
                960,
                1020,
                1080,
                1140,
                1200,
                1260,
                1320,
                1380
            ],
            "duration_min": 210
        },
        {
            "id": "ANN_190_BAB_189_road",
            "arc_type": "transport",
            "from": "ANN_190",
            "to": "BAB_189",
            "mode": "road",
            "dist": 525.8,
            "departure_minutes": [
                0,
                60,
                120,
                180,
                240,
                300,
                360,
                420,
                480,
                540,
                600,
                660,
                720,
                780,
                840,
                900,
                960,
                1020,
                1080,
                1140,
                1200,
                1260,
                1320,
                1380
            ],
            "duration_min": 368
        },
        {
            "id": "BUE_422_LAP_427_road",
            "arc_type": "transport",
            "from": "BUE_422",
            "to": "LAP_427",
            "mode": "road",
            "dist": 63.5,
            "departure_minutes": [
                0,
                60,
                120,
                180,
                240,
                300,
                360,
                420,
                480,
                540,
                600,
                660,
                720,
                780,
                840,
                900,
                960,
                1020,
                1080,
                1140,
                1200,
                1260,
                1320,
                1380
            ],
            "duration_min": 52
        },
        {
            "id": "BUE_422_ROS_424_road",
            "arc_type": "transport",
            "from": "BUE_422",
            "to": "ROS_424",
            "mode": "road",
            "dist": 294.1,
            "departure_minutes": [
                0,
                60,
                120,
                180,
                240,
                300,
                360,
                420,
                480,
                540,
                600,
                660,
                720,
                780,
                840,
                900,
                960,
                1020,
                1080,
                1140,
                1200,
                1260,
                1320,
                1380
            ],
            "duration_min": 192
        },
        {
            "id": "BUE_422_COR_423_road",
            "arc_type": "transport",
            "from": "BUE_422",
            "to": "COR_423",
            "mode": "road",
            "dist": 692.0,
            "departure_minutes": [
                0,
                60,
                120,
                180,
                240,
                300,
                360,
                420,
                480,
                540,
                600,
                660,
                720,
                780,
                840,
                900,
                960,
                1020,
                1080,
                1140,
                1200,
                1260,
                1320,
                1380
            ],
            "duration_min": 429
        },